name	population	lat	lon
Москва	12380664	55.75	37.65
Санкт-Петербург	5281579	59.57	30.19
Новосибирск	1602915	55.01	82.55
Екатеринбург	1455514	56.5	60.35
Нижний Новгород	1261666	56.19	44
Казань	1231878	55.47	49.06
Челябинск	1198858	55.10	61.24
Омск	1178391	54.58	73.23
Самара	1169719	53.11	50.07
Ростов-на-Дону	1125299	47.14	39.42
Уфа	1115560	54.44	55.58
Красноярск	1082933	56	92.52
Пермь	1048005	58	56.15
Воронеж	1039801	51.4	39.12
Волгоград	1015586	48.42	44.28
